{
"type": "FeatureCollection",
"name": "districtcentroid",
"crs": { "type": "name", "properties": { "name": "urn:ogc:def:crs:OGC:1.3:CRS84" } },
"features": [
{ "type": "Feature", "properties": { "OBJECTID": 1, "STATE_CODE": 7, "DISTRICT": "DOTI", "GaPa_NaPa": "Adharsha", "Type_GN": "Gaunpalika", "Province": "Sudur Pashchim", "Area": 0.0, "Shape_Leng": 282908.088904, "Shape_Area": 2054599014.2900002 }, "geometry": { "type": "Point", "coordinates": [ 80.894456724324456, 29.169565630795017 ] } },
{ "type": "Feature", "properties": { "OBJECTID": 2, "STATE_CODE": 3, "DISTRICT": "RAMECHHAP", "GaPa_NaPa": "Doramba", "Type_GN": "Gaunpalika", "Province": "Bagmati", "Area": 0.0, "Shape_Leng": 295289.03544000001, "Shape_Area": 1565521935.2300003 }, "geometry": { "type": "Point", "coordinates": [ 86.177257871272744, 27.513541200626133 ] } },
{ "type": "Feature", "properties": { "OBJECTID": 3, "STATE_CODE": 5, "DISTRICT": "DANG", "GaPa_NaPa": "Babai", "Type_GN": "Gaunpalika", "Province": "5", "Area": 0.0, "Shape_Leng": 352004.991843, "Shape_Area": 3059780682.25 }, "geometry": { "type": "Point", "coordinates": [ 82.402197186908268, 27.968686987445388 ] } },
{ "type": "Feature", "properties": { "OBJECTID": 4, "STATE_CODE": 5, "DISTRICT": "RUPANDEHI", "GaPa_NaPa": "Butwal", "Type_GN": "Upamahanagarpalika", "Province": "5", "Area": 0.0, "Shape_Leng": 229898.40429599999, "Shape_Area": 1304475275.79 }, "geometry": { "type": "Point", "coordinates": [ 83.389438375372279, 27.576603018651912 ] } },
{ "type": "Feature", "properties": { "OBJECTID": 5, "STATE_CODE": 3, "DISTRICT": "SINDHULI", "GaPa_NaPa": "Dudhouli", "Type_GN": "Nagarpalika", "Province": "Bagmati", "Area": 0.0, "Shape_Leng": 352777.94955600001, "Shape_Area": 2486021188.23 }, "geometry": { "type": "Point", "coordinates": [ 85.943656125062347, 27.201393660231297 ] } },
{ "type": "Feature", "properties": { "OBJECTID": 6, "STATE_CODE": 1, "DISTRICT": "KHOTANG", "GaPa_NaPa": "Ainselukhark", "Type_GN": "Gaunpalika", "Province": "1", "Area": 0.0, "Shape_Leng": 249662.71108199999, "Shape_Area": 1591856711.75 }, "geometry": { "type": "Point", "coordinates": [ 86.786925011204048, 27.168029706074009 ] } },
{ "type": "Feature", "properties": { "OBJECTID": 7, "STATE_CODE": 3, "DISTRICT": "CHITAWAN", "GaPa_NaPa": "Bharatpur", "Type_GN": "Mahanagarpalika", "Province": "Bagmati", "Area": 0.0, "Shape_Leng": 349477.97903400002, "Shape_Area": 2239676989.6599998 }, "geometry": { "type": "Point", "coordinates": [ 84.434418338630778, 27.58486800891421 ] } },
{ "type": "Feature", "properties": { "OBJECTID": 8, "STATE_CODE": 5, "DISTRICT": "BARDIYA", "GaPa_NaPa": "Badhaiyatal", "Type_GN": "Gaunpalika", "Province": "5", "Area": 0.0, "Shape_Leng": 271871.95912499999, "Shape_Area": 2003526519.3599999 }, "geometry": { "type": "Point", "coordinates": [ 81.401403167295001, 28.383592542181844 ] } },
{ "type": "Feature", "properties": { "OBJECTID": 9, "STATE_CODE": 6, "DISTRICT": "KALIKOT", "GaPa_NaPa": "Kalika", "Type_GN": "Gaunpalika", "Province": "Karnali", "Area": 0.0, "Shape_Leng": 235128.18558, "Shape_Area": 1641305764.6099999 }, "geometry": { "type": "Point", "coordinates": [ 81.751919635362015, 29.195039735960236 ] } },
{ "type": "Feature", "properties": { "OBJECTID": 10, "STATE_CODE": 6, "DISTRICT": "HUMLA", "GaPa_NaPa": "Adanchuli", "Type_GN": "Gaunpalika", "Province": "Karnali", "Area": 0.0, "Shape_Leng": 530066.48904500005, "Shape_Area": 6012347228.4899998 }, "geometry": { "type": "Point", "coordinates": [ 81.879751437465544, 30.032247138782989 ] } },
{ "type": "Feature", "properties": { "OBJECTID": 11, "STATE_CODE": 7, "DISTRICT": "DARCHULA", "GaPa_NaPa": "Apihimal", "Type_GN": "Gaunpalika", "Province": "Sudur Pashchim", "Area": 0.0, "Shape_Leng": 391163.82042900001, "Shape_Area": 2701289765.4499998 }, "geometry": { "type": "Point", "coordinates": [ 80.791197351744557, 29.94799474514879 ] } },
{ "type": "Feature", "properties": { "OBJECTID": 12, "STATE_CODE": 2, "DISTRICT": "MAHOTTARI", "GaPa_NaPa": "Aurahi", "Type_GN": "Nagarpalika", "Province": "2", "Area": 0.0, "Shape_Leng": 192887.78740199999, "Shape_Area": 1001355091.2099999 }, "geometry": { "type": "Point", "coordinates": [ 85.819800839637836, 26.879059500682263 ] } },
{ "type": "Feature", "properties": { "OBJECTID": 13, "STATE_CODE": 2, "DISTRICT": "SAPTARI", "GaPa_NaPa": "Agnisair Krishna Savaran", "Type_GN": "Gaunpalika", "Province": "2", "Area": 0.0, "Shape_Leng": 226210.91731300001, "Shape_Area": 1283425369.21 }, "geometry": { "type": "Point", "coordinates": [ 86.746026110820253, 26.598047878039651 ] } },
{ "type": "Feature", "properties": { "OBJECTID": 14, "STATE_CODE": 2, "DISTRICT": "RAUTAHAT", "GaPa_NaPa": "Baudhimai", "Type_GN": "Nagarpalika", "Province": "2", "Area": 0.0, "Shape_Leng": 197547.99649, "Shape_Area": 1038427271.77 }, "geometry": { "type": "Point", "coordinates": [ 85.302219142670381, 27.001500243727524 ] } },
{ "type": "Feature", "properties": { "OBJECTID": 15, "STATE_CODE": 6, "DISTRICT": "MUGU", "GaPa_NaPa": "Chhayanath Rara", "Type_GN": "Nagarpalika", "Province": "Karnali", "Area": 0.0, "Shape_Leng": 414809.37482099998, "Shape_Area": 3234490713.0999994 }, "geometry": { "type": "Point", "coordinates": [ 82.370479197902668, 29.617999805207258 ] } },
{ "type": "Feature", "properties": { "OBJECTID": 16, "STATE_CODE": 4, "DISTRICT": "BAGLUNG", "GaPa_NaPa": "Badigad", "Type_GN": "Gaunpalika", "Province": "Gandaki", "Area": 0.0, "Shape_Leng": 298798.86265600001, "Shape_Area": 1835741750.1900001 }, "geometry": { "type": "Point", "coordinates": [ 83.250350444531747, 28.34742764823341 ] } },
{ "type": "Feature", "properties": { "OBJECTID": 17, "STATE_CODE": 1, "DISTRICT": "SUNSARI", "GaPa_NaPa": "Barah", "Type_GN": "Nagarpalika", "Province": "1", "Area": 0.0, "Shape_Leng": 212165.721923, "Shape_Area": 1194568654.8900001 }, "geometry": { "type": "Point", "coordinates": [ 87.169931311500662, 26.650540976088326 ] } },
{ "type": "Feature", "properties": { "OBJECTID": 18, "STATE_CODE": 6, "DISTRICT": "DAILEKH", "GaPa_NaPa": "Aathabis", "Type_GN": "Nagarpalika", "Province": "Karnali", "Area": 0.0, "Shape_Leng": 201958.47865899999, "Shape_Area": 1485566807.1999998 }, "geometry": { "type": "Point", "coordinates": [ 81.67876272446199, 28.881312931432209 ] } },
{ "type": "Feature", "properties": { "OBJECTID": 19, "STATE_CODE": 6, "DISTRICT": "RUKUM_W", "GaPa_NaPa": "Aathbiskot", "Type_GN": "Nagarpalika", "Province": "Karnali", "Area": 0.0, "Shape_Leng": 226648.118835, "Shape_Area": 1213486132.9300001 }, "geometry": { "type": "Point", "coordinates": [ 82.460338699607888, 28.738762528467326 ] } },
{ "type": "Feature", "properties": { "OBJECTID": 20, "STATE_CODE": 4, "DISTRICT": "MUSTANG", "GaPa_NaPa": "Barhagaun Muktikhsetra", "Type_GN": "Gaunpalika", "Province": "Gandaki", "Area": 0.0, "Shape_Leng": 333156.35284299997, "Shape_Area": 3563420088.7199998 }, "geometry": { "type": "Point", "coordinates": [ 83.857761059047832, 28.981240706492716 ] } },
{ "type": "Feature", "properties": { "OBJECTID": 21, "STATE_CODE": 4, "DISTRICT": "LAMJUNG", "GaPa_NaPa": "Besishahar", "Type_GN": "Nagarpalika", "Province": "Gandaki", "Area": 0.0, "Shape_Leng": 202351.81379300001, "Shape_Area": 1662395328.7699997 }, "geometry": { "type": "Point", "coordinates": [ 84.429940627261843, 28.289241754733187 ] } },
{ "type": "Feature", "properties": { "OBJECTID": 22, "STATE_CODE": 3, "DISTRICT": "KATHMANDU", "GaPa_NaPa": "Budhanilakantha", "Type_GN": "Nagarpalika", "Province": "Bagmati", "Area": 0.0, "Shape_Leng": 141047.06405700001, "Shape_Area": 413606376.537 }, "geometry": { "type": "Point", "coordinates": [ 85.347238868616301, 27.72812763819276 ] } },
{ "type": "Feature", "properties": { "OBJECTID": 23, "STATE_CODE": 1, "DISTRICT": "UDAYAPUR", "GaPa_NaPa": "Belaka", "Type_GN": "Nagarpalika", "Province": "1", "Area": 0.0, "Shape_Leng": 388065.22365900001, "Shape_Area": 2300334934.8800001 }, "geometry": { "type": "Point", "coordinates": [ 86.681235844722849, 26.90300735009777 ] } },
{ "type": "Feature", "properties": { "OBJECTID": 24, "STATE_CODE": 2, "DISTRICT": "DHANUSHA", "GaPa_NaPa": "Aaurahi", "Type_GN": "Gaunpalika", "Province": "2", "Area": 0.0, "Shape_Leng": 246516.233955, "Shape_Area": 1189651741.27 }, "geometry": { "type": "Point", "coordinates": [ 86.03376852435575, 26.828668203119342 ] } },
{ "type": "Feature", "properties": { "OBJECTID": 25, "STATE_CODE": 1, "DISTRICT": "TERHATHUM", "GaPa_NaPa": "Aathrai", "Type_GN": "Gaunpalika", "Province": "1", "Area": 0.0, "Shape_Leng": 124084.446937, "Shape_Area": 672401216.66799998 }, "geometry": { "type": "Point", "coordinates": [ 87.54883932999752, 27.154316277636998 ] } },
{ "type": "Feature", "properties": { "OBJECTID": 26, "STATE_CODE": 7, "DISTRICT": "DADELDHURA", "GaPa_NaPa": "Ajaymeru", "Type_GN": "Gaunpalika", "Province": "Sudur Pashchim", "Area": 0.0, "Shape_Leng": 250875.32473600001, "Shape_Area": 1506101663.28 }, "geometry": { "type": "Point", "coordinates": [ 80.488956645361156, 29.223045152116701 ] } },
{ "type": "Feature", "properties": { "OBJECTID": 27, "STATE_CODE": 1, "DISTRICT": "DHANKUTA", "GaPa_NaPa": "Chaubise", "Type_GN": "Gaunpalika", "Province": "1", "Area": 0.0, "Shape_Leng": 171534.02647899999, "Shape_Area": 900948784.89400005 }, "geometry": { "type": "Point", "coordinates": [ 87.330837883427208, 26.990858404032192 ] } },
{ "type": "Feature", "properties": { "OBJECTID": 28, "STATE_CODE": 7, "DISTRICT": "BAJURA", "GaPa_NaPa": "Badimalika", "Type_GN": "Nagarpalika", "Province": "Sudur Pashchim", "Area": 0.0, "Shape_Leng": 308370.071582, "Shape_Area": 2300349807.6399999 }, "geometry": { "type": "Point", "coordinates": [ 81.563049012370442, 29.561246704016806 ] } },
{ "type": "Feature", "properties": { "OBJECTID": 29, "STATE_CODE": 3, "DISTRICT": "KABHREPALANCHOK", "GaPa_NaPa": "Banepa", "Type_GN": "Nagarpalika", "Province": "Bagmati", "Area": 0.0, "Shape_Leng": 225101.761983, "Shape_Area": 1394416772.6900001 }, "geometry": { "type": "Point", "coordinates": [ 85.61937059737258, 27.535283072534348 ] } },
{ "type": "Feature", "properties": { "OBJECTID": 30, "STATE_CODE": 5, "DISTRICT": "PYUTHAN", "GaPa_NaPa": "Ayirabati", "Type_GN": "Gaunpalika", "Province": "5", "Area": 0.0, "Shape_Leng": 238457.160695, "Shape_Area": 1320901960.1500001 }, "geometry": { "type": "Point", "coordinates": [ 82.864912960662451, 28.115378580147997 ] } },
{ "type": "Feature", "properties": { "OBJECTID": 31, "STATE_CODE": 7, "DISTRICT": "BAITADI", "GaPa_NaPa": "Dasharathchanda", "Type_GN": "Nagarpalika", "Province": "Sudur Pashchim", "Area": 0.0, "Shape_Leng": 256934.15466900001, "Shape_Area": 1496314028.9799998 }, "geometry": { "type": "Point", "coordinates": [ 80.571403524127447, 29.507464440413766 ] } },
{ "type": "Feature", "properties": { "OBJECTID": 32, "STATE_CODE": 2, "DISTRICT": "PARSA", "GaPa_NaPa": "Bahudaramai", "Type_GN": "Nagarpalika", "Province": "2", "Area": 0.0, "Shape_Leng": 239514.05787399999, "Shape_Area": 1406475729.8900001 }, "geometry": { "type": "Point", "coordinates": [ 84.780051175088346, 27.239613215905131 ] } },
{ "type": "Feature", "properties": { "OBJECTID": 33, "STATE_CODE": 1, "DISTRICT": "BHOJPUR", "GaPa_NaPa": "Aamchowk", "Type_GN": "Gaunpalika", "Province": "1", "Area": 0.0, "Shape_Leng": 225994.93193399999, "Shape_Area": 1526745926.0099998 }, "geometry": { "type": "Point", "coordinates": [ 87.067779425992626, 27.181742413403008 ] } },
{ "type": "Feature", "properties": { "OBJECTID": 34, "STATE_CODE": 7, "DISTRICT": "ACHHAM", "GaPa_NaPa": "Bannigadhi Jayagadh", "Type_GN": "Gaunpalika", "Province": "Sudur Pashchim", "Area": 0.0, "Shape_Leng": 276897.34518599999, "Shape_Area": 1702678729.0 }, "geometry": { "type": "Point", "coordinates": [ 81.296999469083417, 29.112492028868932 ] } },
{ "type": "Feature", "properties": { "OBJECTID": 35, "STATE_CODE": 3, "DISTRICT": "RASUWA", "GaPa_NaPa": "Gosaikunda", "Type_GN": "Gaunpalika", "Province": "Bagmati", "Area": 0.0, "Shape_Leng": 253819.31859000001, "Shape_Area": 1501223587.74 }, "geometry": { "type": "Point", "coordinates": [ 85.415833987850789, 28.18317504801319 ] } },
{ "type": "Feature", "properties": { "OBJECTID": 36, "STATE_CODE": 7, "DISTRICT": "BAJHANG", "GaPa_NaPa": "Bithadchir", "Type_GN": "Gaunpalika", "Province": "Sudur Pashchim", "Area": 0.0, "Shape_Leng": 325275.07772900001, "Shape_Area": 3464299345.1700001 }, "geometry": { "type": "Point", "coordinates": [ 81.178604161152165, 29.708169177504576 ] } },
{ "type": "Feature", "properties": { "OBJECTID": 37, "STATE_CODE": 4, "DISTRICT": "NAWALPARASI_E", "GaPa_NaPa": "Binayee Tribeni", "Type_GN": "Gaunpalika", "Province": "Gandaki", "Area": 0.0, "Shape_Leng": 285172.976371, "Shape_Area": 1425824863.29 }, "geometry": { "type": "Point", "coordinates": [ 84.062061617347311, 27.687317674744222 ] } },
{ "type": "Feature", "properties": { "OBJECTID": 38, "STATE_CODE": 6, "DISTRICT": "JUMLA", "GaPa_NaPa": "Chandannath", "Type_GN": "Nagarpalika", "Province": "Karnali", "Area": 0.0, "Shape_Leng": 291774.60795099998, "Shape_Area": 2555162051.5300002 }, "geometry": { "type": "Point", "coordinates": [ 82.217153360128137, 29.271638499722602 ] } },
{ "type": "Feature", "properties": { "OBJECTID": 39, "STATE_CODE": 1, "DISTRICT": "PANCHTHAR", "GaPa_NaPa": "Falelung", "Type_GN": "Gaunpalika", "Province": "1", "Area": 0.0, "Shape_Leng": 246390.052249, "Shape_Area": 1251786271.8900001 }, "geometry": { "type": "Point", "coordinates": [ 87.775685905134978, 27.114927800325844 ] } },
{ "type": "Feature", "properties": { "OBJECTID": 40, "STATE_CODE": 3, "DISTRICT": "DOLAKHA", "GaPa_NaPa": "Baiteshwor", "Type_GN": "Gaunpalika", "Province": "Bagmati", "Area": 0.0, "Shape_Leng": 300724.19177199999, "Shape_Area": 2148696797.7600002 }, "geometry": { "type": "Point", "coordinates": [ 86.198506002986989, 27.785648416128552 ] } },
{ "type": "Feature", "properties": { "OBJECTID": 41, "STATE_CODE": 1, "DISTRICT": "SOLUKHUMBU", "GaPa_NaPa": "Thulung Dudhkoshi", "Type_GN": "Gaunpalika", "Province": "1", "Area": 0.0, "Shape_Leng": 307926.154859, "Shape_Area": 3359407170.27 }, "geometry": { "type": "Point", "coordinates": [ 86.720403060319697, 27.710449516749215 ] } },
{ "type": "Feature", "properties": { "OBJECTID": 42, "STATE_CODE": 1, "DISTRICT": "OKHALDHUNGA", "GaPa_NaPa": "Champadevi", "Type_GN": "Gaunpalika", "Province": "1", "Area": 0.0, "Shape_Leng": 171051.28647, "Shape_Area": 1077375772.6600001 }, "geometry": { "type": "Point", "coordinates": [ 86.418546270361503, 27.329429259813878 ] } },
{ "type": "Feature", "properties": { "OBJECTID": 43, "STATE_CODE": 2, "DISTRICT": "SARLAHI", "GaPa_NaPa": "Bagmati", "Type_GN": "Nagarpalika", "Province": "2", "Area": 0.0, "Shape_Leng": 209986.96746099999, "Shape_Area": 1263921701.9000001 }, "geometry": { "type": "Point", "coordinates": [ 85.565200458431349, 26.986085591370941 ] } },
{ "type": "Feature", "properties": { "OBJECTID": 44, "STATE_CODE": 6, "DISTRICT": "SALYAN", "GaPa_NaPa": "Bagchaur", "Type_GN": "Nagarpalika", "Province": "Karnali", "Area": 0.0, "Shape_Leng": 296815.56767999998, "Shape_Area": 1881108359.54 }, "geometry": { "type": "Point", "coordinates": [ 82.143596528155356, 28.401864528823847 ] } },
{ "type": "Feature", "properties": { "OBJECTID": 45, "STATE_CODE": 5, "DISTRICT": "NAWALPARASI_W", "GaPa_NaPa": "Bardaghat", "Type_GN": "Nagarpalika", "Province": "5", "Area": 0.0, "Shape_Leng": 155942.926672, "Shape_Area": 726110269.597 }, "geometry": { "type": "Point", "coordinates": [ 83.738598586609456, 27.528175924751686 ] } },
{ "type": "Feature", "properties": { "OBJECTID": 46, "STATE_CODE": 4, "DISTRICT": "SYANGJA", "GaPa_NaPa": "Aandhikhola", "Type_GN": "Gaunpalika", "Province": "Gandaki", "Area": 0.0, "Shape_Leng": 238634.69212699999, "Shape_Area": 1037477869.88 }, "geometry": { "type": "Point", "coordinates": [ 83.803101991121693, 28.021032165841056 ] } },
{ "type": "Feature", "properties": { "OBJECTID": 47, "STATE_CODE": 6, "DISTRICT": "JAJARKOT", "GaPa_NaPa": "Barekot", "Type_GN": "Gaunpalika", "Province": "Karnali", "Area": 0.0, "Shape_Leng": 272254.63148400001, "Shape_Area": 2223358341.3800001 }, "geometry": { "type": "Point", "coordinates": [ 82.167758273300677, 28.865304830520898 ] } },
{ "type": "Feature", "properties": { "OBJECTID": 48, "STATE_CODE": 4, "DISTRICT": "MYAGDI", "GaPa_NaPa": "Annapurna", "Type_GN": "Gaunpalika", "Province": "Gandaki", "Area": 0.0, "Shape_Leng": 305844.94621099997, "Shape_Area": 2284789931.1999998 }, "geometry": { "type": "Point", "coordinates": [ 83.459880319941021, 28.553072114193402 ] } },
{ "type": "Feature", "properties": { "OBJECTID": 49, "STATE_CODE": 4, "DISTRICT": "MANANG", "GaPa_NaPa": "Chame", "Type_GN": "Gaunpalika", "Province": "Gandaki", "Area": 0.0, "Shape_Leng": 250027.11936400001, "Shape_Area": 2320604596.8400002 }, "geometry": { "type": "Point", "coordinates": [ 84.22440220196799, 28.672845303086941 ] } },
{ "type": "Feature", "properties": { "OBJECTID": 50, "STATE_CODE": 5, "DISTRICT": "ARGHAKHANCHI", "GaPa_NaPa": "Bhumekasthan", "Type_GN": "Nagarpalika", "Province": "5", "Area": 0.0, "Shape_Leng": 246651.75987899999, "Shape_Area": 1239074611.8399999 }, "geometry": { "type": "Point", "coordinates": [ 83.079207041535028, 27.908471183090995 ] } },
{ "type": "Feature", "properties": { "OBJECTID": 51, "STATE_CODE": 4, "DISTRICT": "KASKI", "GaPa_NaPa": "Annapurna", "Type_GN": "Gaunpalika", "Province": "Gandaki", "Area": 0.0, "Shape_Leng": 242450.667693, "Shape_Area": 2084375529.52 }, "geometry": { "type": "Point", "coordinates": [ 83.997235297785991, 28.354872256893024 ] } },
{ "type": "Feature", "properties": { "OBJECTID": 52, "STATE_CODE": 3, "DISTRICT": "MAKAWANPUR", "GaPa_NaPa": "Bagmati", "Type_GN": "Gaunpalika", "Province": "Bagmati", "Area": 0.0, "Shape_Leng": 331156.77818899998, "Shape_Area": 2443640306.0900002 }, "geometry": { "type": "Point", "coordinates": [ 85.079078870465835, 27.469891321160087 ] } },
{ "type": "Feature", "properties": { "OBJECTID": 53, "STATE_CODE": 6, "DISTRICT": "SURKHET", "GaPa_NaPa": "Barahtal", "Type_GN": "Gaunpalika", "Province": "Karnali", "Area": 0.0, "Shape_Leng": 372656.18438499997, "Shape_Area": 2488529725.2399998 }, "geometry": { "type": "Point", "coordinates": [ 81.586295319426029, 28.641107202820592 ] } },
{ "type": "Feature", "properties": { "OBJECTID": 54, "STATE_CODE": 5, "DISTRICT": "KAPILBASTU", "GaPa_NaPa": "Banganga", "Type_GN": "Nagarpalika", "Province": "5", "Area": 0.0, "Shape_Leng": 230725.334061, "Shape_Area": 1651164798.2100003 }, "geometry": { "type": "Point", "coordinates": [ 82.981374057622645, 27.627728339356672 ] } },
{ "type": "Feature", "properties": { "OBJECTID": 55, "STATE_CODE": 5, "DISTRICT": "ROLPA", "GaPa_NaPa": "Duikholi", "Type_GN": "Gaunpalika", "Province": "5", "Area": 0.0, "Shape_Leng": 235698.35263400001, "Shape_Area": 1885460182.6300001 }, "geometry": { "type": "Point", "coordinates": [ 82.627943393977233, 28.34409097536949 ] } },
{ "type": "Feature", "properties": { "OBJECTID": 56, "STATE_CODE": 6, "DISTRICT": "DOLPA", "GaPa_NaPa": "Chharka Tangsong", "Type_GN": "Gaunpalika", "Province": "Karnali", "Area": 0.0, "Shape_Leng": 500761.92594599997, "Shape_Area": 7944779024.2299995 }, "geometry": { "type": "Point", "coordinates": [ 83.052056672084873, 29.170580994726855 ] } },
{ "type": "Feature", "properties": { "OBJECTID": 57, "STATE_CODE": 7, "DISTRICT": "KANCHANPUR", "GaPa_NaPa": "Bedkot", "Type_GN": "Nagarpalika", "Province": "Sudur Pashchim", "Area": 0.0, "Shape_Leng": 234709.849028, "Shape_Area": 1622454709.4 }, "geometry": { "type": "Point", "coordinates": [ 80.321683701122964, 28.861746721601065 ] } },
{ "type": "Feature", "properties": { "OBJECTID": 58, "STATE_CODE": 1, "DISTRICT": "MORANG", "GaPa_NaPa": "Belbari", "Type_GN": "Nagarpalika", "Province": "1", "Area": 0.0, "Shape_Leng": 227577.55582000001, "Shape_Area": 1827337584.2499998 }, "geometry": { "type": "Point", "coordinates": [ 87.470080568738055, 26.617413772966263 ] } },
{ "type": "Feature", "properties": { "OBJECTID": 59, "STATE_CODE": 3, "DISTRICT": "BHAKTAPUR", "GaPa_NaPa": "Bhaktapur", "Type_GN": "Nagarpalika", "Province": "Bagmati", "Area": 0.0, "Shape_Leng": 59883.151064099999, "Shape_Area": 123106723.45299999 }, "geometry": { "type": "Point", "coordinates": [ 85.440674774028651, 27.677616990283951 ] } },
{ "type": "Feature", "properties": { "OBJECTID": 60, "STATE_CODE": 2, "DISTRICT": "BARA", "GaPa_NaPa": "Adarshkotwal", "Type_GN": "Gaunpalika", "Province": "2", "Area": 0.0, "Shape_Leng": 242716.969705, "Shape_Area": 1272612086.1099999 }, "geometry": { "type": "Point", "coordinates": [ 85.070529645849149, 27.107885565484647 ] } },
{ "type": "Feature", "properties": { "OBJECTID": 61, "STATE_CODE": 1, "DISTRICT": "ILAM", "GaPa_NaPa": "Chulachuli", "Type_GN": "Gaunpalika", "Province": "1", "Area": 0.0, "Shape_Leng": 257589.531277, "Shape_Area": 1691193765.26 }, "geometry": { "type": "Point", "coordinates": [ 87.901456575244666, 26.881089070091171 ] } },
{ "type": "Feature", "properties": { "OBJECTID": 62, "STATE_CODE": 3, "DISTRICT": "NUWAKOT", "GaPa_NaPa": "Belkotgadhi", "Type_GN": "Nagarpalika", "Province": "Bagmati", "Area": 0.0, "Shape_Leng": 207667.151755, "Shape_Area": 1193162633.1600001 }, "geometry": { "type": "Point", "coordinates": [ 85.235274488085125, 27.914999825398695 ] } },
{ "type": "Feature", "properties": { "OBJECTID": 63, "STATE_CODE": 4, "DISTRICT": "TANAHU", "GaPa_NaPa": "Anbukhaireni", "Type_GN": "Gaunpalika", "Province": "Gandaki", "Area": 0.0, "Shape_Leng": 284829.36720500002, "Shape_Area": 1571842410.2 }, "geometry": { "type": "Point", "coordinates": [ 84.25108215599451, 27.95529595385986 ] } },
{ "type": "Feature", "properties": { "OBJECTID": 64, "STATE_CODE": 5, "DISTRICT": "GULMI", "GaPa_NaPa": "Chandrakot", "Type_GN": "Gaunpalika", "Province": "5", "Area": 0.0, "Shape_Leng": 213943.067687, "Shape_Area": 1107758480.0599999 }, "geometry": { "type": "Point", "coordinates": [ 83.306912379696399, 28.093819539316723 ] } },
{ "type": "Feature", "properties": { "OBJECTID": 65, "STATE_CODE": 3, "DISTRICT": "SINDHUPALCHOK", "GaPa_NaPa": "Balefi", "Type_GN": "Gaunpalika", "Province": "Bagmati", "Area": 0.0, "Shape_Leng": 267490.05645500001, "Shape_Area": 2492122655.6999998 }, "geometry": { "type": "Point", "coordinates": [ 85.73951596078382, 27.914899426660231 ] } },
{ "type": "Feature", "properties": { "OBJECTID": 66, "STATE_CODE": 4, "DISTRICT": "GORKHA", "GaPa_NaPa": "Aarughat", "Type_GN": "Gaunpalika", "Province": "Gandaki", "Area": 0.0, "Shape_Leng": 427287.73795899999, "Shape_Area": 3645865669.0900002 }, "geometry": { "type": "Point", "coordinates": [ 84.790063989059746, 28.318753597598565 ] } },
{ "type": "Feature", "properties": { "OBJECTID": 67, "STATE_CODE": 2, "DISTRICT": "SIRAHA", "GaPa_NaPa": "Arnama", "Type_GN": "Gaunpalika", "Province": "2", "Area": 0.0, "Shape_Leng": 193075.25448900001, "Shape_Area": 1140571959.76 }, "geometry": { "type": "Point", "coordinates": [ 86.342308801998797, 26.746384910838167 ] } },
{ "type": "Feature", "properties": { "OBJECTID": 68, "STATE_CODE": 7, "DISTRICT": "KAILALI", "GaPa_NaPa": "Bardagoriya", "Type_GN": "Gaunpalika", "Province": "Sudur Pashchim", "Area": 0.0, "Shape_Leng": 352843.28277500003, "Shape_Area": 3292364841.8800001 }, "geometry": { "type": "Point", "coordinates": [ 80.879112220081367, 28.741565272109828 ] } },
{ "type": "Feature", "properties": { "OBJECTID": 69, "STATE_CODE": 3, "DISTRICT": "LALITPUR", "GaPa_NaPa": "Bagmati", "Type_GN": "Gaunpalika", "Province": "Bagmati", "Area": 0.0, "Shape_Leng": 121217.99726600001, "Shape_Area": 396831900.93099999 }, "geometry": { "type": "Point", "coordinates": [ 85.342576402289254, 27.539612219106932 ] } },
{ "type": "Feature", "properties": { "OBJECTID": 70, "STATE_CODE": 1, "DISTRICT": "JHAPA", "GaPa_NaPa": "Arjundhara", "Type_GN": "Nagarpalika", "Province": "1", "Area": 0.0, "Shape_Leng": 302471.36710799998, "Shape_Area": 1609505073.5899999 }, "geometry": { "type": "Point", "coordinates": [ 87.913121353526492, 26.584470708834363 ] } },
{ "type": "Feature", "properties": { "OBJECTID": 71, "STATE_CODE": 4, "DISTRICT": "PARBAT", "GaPa_NaPa": "Bihadi", "Type_GN": "Gaunpalika", "Province": "Gandaki", "Area": 0.0, "Shape_Leng": 162740.84613799999, "Shape_Area": 541554408.39199996 }, "geometry": { "type": "Point", "coordinates": [ 83.678777480093245, 28.21122574968674 ] } },
{ "type": "Feature", "properties": { "OBJECTID": 72, "STATE_CODE": 1, "DISTRICT": "SANKHUWASABHA", "GaPa_NaPa": "Bhotkhola", "Type_GN": "Gaunpalika", "Province": "1", "Area": 0.0, "Shape_Leng": 371409.23499099998, "Shape_Area": 3477881820.2600002 }, "geometry": { "type": "Point", "coordinates": [ 87.278099735282495, 27.582057778375642 ] } },
{ "type": "Feature", "properties": { "OBJECTID": 73, "STATE_CODE": 3, "DISTRICT": "DHADING", "GaPa_NaPa": "Benighat Rorang", "Type_GN": "Gaunpalika", "Province": "Bagmati", "Area": 0.0, "Shape_Leng": 359568.91131599998, "Shape_Area": 1906728650.2299998 }, "geometry": { "type": "Point", "coordinates": [ 84.960047706615441, 27.954633825193458 ] } },
{ "type": "Feature", "properties": { "OBJECTID": 74, "STATE_CODE": 1, "DISTRICT": "TAPLEJUNG", "GaPa_NaPa": "Aathrai Tribeni", "Type_GN": "Gaunpalika", "Province": "1", "Area": 0.0, "Shape_Leng": 301482.06404299999, "Shape_Area": 3643850860.1199999 }, "geometry": { "type": "Point", "coordinates": [ 87.821686631607065, 27.582052051859726 ] } },
{ "type": "Feature", "properties": { "OBJECTID": 75, "STATE_CODE": 5, "DISTRICT": "BANKE", "GaPa_NaPa": "Baijanath", "Type_GN": "Gaunpalika", "Province": "5", "Area": 0.0, "Shape_Leng": 235805.166929, "Shape_Area": 1882278990.51 }, "geometry": { "type": "Point", "coordinates": [ 81.82217731874016, 28.087093684966536 ] } },
{ "type": "Feature", "properties": { "OBJECTID": 76, "STATE_CODE": 5, "DISTRICT": "PALPA", "GaPa_NaPa": "Bagnaskali", "Type_GN": "Gaunpalika", "Province": "5", "Area": 0.0, "Shape_Leng": 270596.477602, "Shape_Area": 1461895475.5799999 }, "geometry": { "type": "Point", "coordinates": [ 83.623539659205974, 27.817297633724301 ] } },
{ "type": "Feature", "properties": { "OBJECTID": 77, "STATE_CODE": 5, "DISTRICT": "RUKUM_E", "GaPa_NaPa": "Bhume", "Type_GN": "Gaunpalika", "Province": "5", "Area": 0.0, "Shape_Leng": 255755.03933299999, "Shape_Area": 1682234650.6600003 }, "geometry": { "type": "Point", "coordinates": [ 82.810771862437548, 28.673914637352052 ] } }
]
}